[
  {
    "isoCode": "US",
    "name": "United States",
    "flagUrl": "https://flagcdn.com/us.svg",
    "imageUrl": "https://commons.wikimedia.org/wiki/Special:FilePath/USA_topographic_map-en.svg",
    "capital": "Washington, D.C.",
    "population": 331002651,
    "languages": ["English"],
    "gdpUsd": 21060000000000,
    "lat": 37.0902,
    "lng": -95.7129
  },
  {
    "isoCode": "GB",
    "name": "United Kingdom",
    "flagUrl": "https://flagcdn.com/gb.svg",
    "imageUrl": "https://commons.wikimedia.org/wiki/Special:FilePath/United_Kingdom_-_Location_Map_%28relief%29.svg",
    "capital": "London",
    "population": 67530172,
    "languages": ["English"],
    "gdpUsd": 2827110000000,
    "lat": 55.3781,
    "lng": -3.436
  },
  {
    "isoCode": "FR",
    "name": "France",
    "flagUrl": "https://flagcdn.com/fr.svg",
    "imageUrl": "https://commons.wikimedia.org/wiki/Special:FilePath/France_-_Location_Map_%28relief%29.svg",
    "capital": "Paris",
    "population": 67750000,
    "languages": ["French"],
    "gdpUsd": 2780000000000,
    "lat": 46.2276,
    "lng": 2.2137
  },
  {
    "isoCode": "DE",
    "name": "Germany",
    "flagUrl": "https://flagcdn.com/de.svg",
    "imageUrl": "https://commons.wikimedia.org/wiki/Special:FilePath/Germany_-_Location_Map_%28relief%29.svg",
    "capital": "Berlin",
    "population": 83783942,
    "languages": ["German"],
    "gdpUsd": 3846410000000,
    "lat": 51.1657,
    "lng": 10.4515
  },
  {
    "isoCode": "IT",
    "name": "Italy",
    "flagUrl": "https://flagcdn.com/it.svg",
    "imageUrl": "https://commons.wikimedia.org/wiki/Special:FilePath/Italy_-_Location_Map_%28relief%29.svg",
    "capital": "Rome",
    "population": 58940426,
    "languages": ["Italian"],
    "gdpUsd": 2010670000000,
    "lat": 41.8719,
    "lng": 12.5674
  },
  {
    "isoCode": "ES",
    "name": "Spain",
    "flagUrl": "https://flagcdn.com/es.svg",
    "imageUrl": "https://commons.wikimedia.org/wiki/Special:FilePath/Spain_-_Location_Map_%28relief%29.svg",
    "capital": "Madrid",
    "population": 47560511,
    "languages": ["Spanish"],
    "gdpUsd": 1390720000000,
    "lat": 40.4637,
    "lng": -3.7492
  },
  {
    "isoCode": "JP",
    "name": "Japan",
    "flagUrl": "https://flagcdn.com/jp.svg",
    "imageUrl": "https://commons.wikimedia.org/wiki/Special:FilePath/Japan_-_Location_Map_%28relief%29.svg",
    "capital": "Tokyo",
    "population": 125124989,
    "languages": ["Japanese"],
    "gdpUsd": 4887883000000,
    "lat": 36.2048,
    "lng": 138.2529
  },
  {
    "isoCode": "CN",
    "name": "China",
    "flagUrl": "https://flagcdn.com/cn.svg",
    "imageUrl": "https://commons.wikimedia.org/wiki/Special:FilePath/China_-_Location_Map_%28relief%29.svg",
    "capital": "Beijing",
    "population": 1412600000,
    "languages": ["Mandarin Chinese"],
    "gdpUsd": 14678000000000,
    "lat": 35.8617,
    "lng": 104.1954
  },
  {
    "isoCode": "IN",
    "name": "India",
    "flagUrl": "https://flagcdn.com/in.svg",
    "imageUrl": "https://commons.wikimedia.org/wiki/Special:FilePath/India_-_Location_Map_%28relief%29.svg",
    "capital": "New Delhi",
    "population": 1393409038,
    "languages": ["Hindi", "English"],
    "gdpUsd": 3737453000000,
    "lat": 20.5937,
    "lng": 78.9629
  },
  {
    "isoCode": "BR",
    "name": "Brazil",
    "flagUrl": "https://flagcdn.com/br.svg",
    "imageUrl": "https://commons.wikimedia.org/wiki/Special:FilePath/Brazil_-_Location_Map_%28relief%29.svg",
    "capital": "Brasília",
    "population": 215313498,
    "languages": ["Portuguese"],
    "gdpUsd": 1839758000000,
    "lat": -14.2350,
    "lng": -51.9253
  },
  {
    "isoCode": "CA",
    "name": "Canada",
    "flagUrl": "https://flagcdn.com/ca.svg",
    "imageUrl": "https://commons.wikimedia.org/wiki/Special:FilePath/Canada_%28Location%29_Map.svg",
    "capital": "Ottawa",
    "population": 39052604,
    "languages": ["English", "French"],
    "gdpUsd": 2140720000000,
    "lat": 56.1304,
    "lng": -106.3468
  },
  {
    "isoCode": "AU",
    "name": "Australia",
    "flagUrl": "https://flagcdn.com/au.svg",
    "imageUrl": "https://commons.wikimedia.org/wiki/Special:FilePath/Australia_-_Location_Map_%28relief%29.svg",
    "capital": "Canberra",
    "population": 26068792,
    "languages": ["English"],
    "gdpUsd": 1376820000000,
    "lat": -25.2744,
    "lng": 133.7751
  },
  {
    "isoCode": "MX",
    "name": "Mexico",
    "flagUrl": "https://flagcdn.com/mx.svg",
    "imageUrl": "https://commons.wikimedia.org/wiki/Special:FilePath/Mexico_-_Location_Map_%28relief%29.svg",
    "capital": "Mexico City",
    "population": 128932753,
    "languages": ["Spanish"],
    "gdpUsd": 1158230000000,
    "lat": 23.6345,
    "lng": -102.5528
  },
  {
    "isoCode": "KR",
    "name": "South Korea",
    "flagUrl": "https://flagcdn.com/kr.svg",
    "imageUrl": "https://commons.wikimedia.org/wiki/Special:FilePath/South_Korea_-_Location_Map_%28relief%29.svg",
    "capital": "Seoul",
    "population": 51780579,
    "languages": ["Korean"],
    "gdpUsd": 1642370000000,
    "lat": 35.9078,
    "lng": 127.7669
  },
  {
    "isoCode": "RU",
    "name": "Russia",
    "flagUrl": "https://flagcdn.com/ru.svg",
    "imageUrl": "https://commons.wikimedia.org/wiki/Special:FilePath/Russia_-_Location_Map_%28relief%29.svg",
    "capital": "Moscow",
    "population": 144073841,
    "languages": ["Russian"],
    "gdpUsd": 1657060000000,
    "lat": 61.52,
    "lng": 105.3188
  },
  {
    "isoCode": "ZA",
    "name": "South Africa",
    "flagUrl": "https://flagcdn.com/za.svg",
    "imageUrl": "https://commons.wikimedia.org/wiki/Special:FilePath/South_Africa_-_Location_Map_%28relief%29.svg",
    "capital": "Pretoria",
    "population": 60142978,
    "languages": ["Zulu", "English", "Afrikaans"],
    "gdpUsd": 405760000000,
    "lat": -30.5595,
    "lng": 22.9375
  },
  {
    "isoCode": "SG",
    "name": "Singapore",
    "flagUrl": "https://flagcdn.com/sg.svg",
    "imageUrl": "https://commons.wikimedia.org/wiki/Special:FilePath/Singapore_-_Location_Map_%28relief%29.svg",
    "capital": "Singapore",
    "population": 5917600,
    "languages": ["English", "Mandarin Chinese", "Malay", "Tamil"],
    "gdpUsd": 501690000000,
    "lat": 1.3521,
    "lng": 103.8198
  },
  {
    "isoCode": "AE",
    "name": "United Arab Emirates",
    "flagUrl": "https://flagcdn.com/ae.svg",
    "imageUrl": "https://commons.wikimedia.org/wiki/Special:FilePath/United_Arab_Emirates_-_Location_Map_%28relief%29.svg",
    "capital": "Abu Dhabi",
    "population": 9890400,
    "languages": ["Arabic"],
    "gdpUsd": 426680000000,
    "lat": 23.4241,
    "lng": 53.8478
  },
  {
    "isoCode": "TH",
    "name": "Thailand",
    "flagUrl": "https://flagcdn.com/th.svg",
    "imageUrl": "https://commons.wikimedia.org/wiki/Special:FilePath/Thailand_-_Location_Map_%28relief%29.svg",
    "capital": "Bangkok",
    "population": 71801279,
    "languages": ["Thai"],
    "gdpUsd": 469890000000,
    "lat": 15.8700,
    "lng": 100.9925
  },
  {
    "isoCode": "GR",
    "name": "Greece",
    "flagUrl": "https://flagcdn.com/gr.svg",
    "imageUrl": "https://commons.wikimedia.org/wiki/Special:FilePath/Greece_-_Location_Map_%28relief%29.svg",
    "capital": "Athens",
    "population": 10640000,
    "languages": ["Greek"],
    "gdpUsd": 219110000000,
    "lat": 38.9940,
    "lng": 21.9877
  },
  {
    "isoCode": "PT",
    "name": "Portugal",
    "flagUrl": "https://flagcdn.com/pt.svg",
    "imageUrl": "https://commons.wikimedia.org/wiki/Special:FilePath/Portugal_-_Location_Map_%28relief%29.svg",
    "capital": "Lisbon",
    "population": 10467366,
    "languages": ["Portuguese"],
    "gdpUsd": 251510000000,
    "lat": 39.3999,
    "lng": -8.2245
  }
]
